$GPRMC,033304.435,V,3454.929,N,08102.496,W,11.0,1.41,301117,,E*43
$GPGGA,033305.435,3454.929,N,08102.496,W,0,00,,,M,,M,,*51
$GPGLL,3454.929,N,08102.496,W,033306.435,V*32
$GPGSA,A,2,17,16,12,08,06,06,,,,,,,0.7,0.7,0.4*3D
$GPGSV,2,1,06,17,13,130,58,16,17,301,44,12,39,085,71,08,54,041,51*7E
$GPGSV,2,2,06,06,22,295,52,06,83,100,43*7B
$GPRMC,033310.435,V,3454.928,N,08102.494,W,28.2,1.33,301117,,E*48
$GPGGA,033311.435,3454.928,N,08102.494,W,0,04,0.7,,M,,M,,*7A
$GPGLL,3454.928,N,08102.494,W,033312.435,V*34
$GPGSA,A,3,17,16,12,08,06,06,,,,,,,0.4,0.3,0.4*3B
$GPGSV,2,1,06,17,57,314,86,16,40,139,80,12,52,326,27,08,56,278,50*75
$GPGSV,2,2,06,06,21,309,80,06,81,339,47*7D
$GPRMC,033316.435,V,3454.927,N,08102.493,W,14.7,1.27,301117,,E*49
$GPGGA,033317.435,3454.927,N,08102.493,W,0,04,0.3,,M,,M,,*70
$GPGLL,3454.927,N,08102.493,W,033318.435,V*36
$GPGSA,A,3,17,16,12,08,06,06,,,,,,,0.1,1.0,0.8*30
$GPGSV,2,1,06,17,66,018,17,16,79,088,75,12,33,082,36,08,80,025,84*79
$GPGSV,2,2,06,06,44,276,43,06,75,011,55*79
$GPRMC,033322.435,V,3454.926,N,08102.491,W,71.1,1.24,301117,,E*4B
$GPGGA,033323.435,3454.926,N,08102.491,W,0,04,1.0,,M,,M,,*76
$GPGLL,3454.926,N,08102.491,W,033324.435,V*3A
$GPGSA,A,3,17,16,12,08,06,06,,,,,,,0.3,0.3,0.7*3F
$GPGSV,2,1,06,17,10,224,35,16,79,266,17,12,69,345,50,08,19,292,44*76
$GPGSV,2,2,06,06,26,307,89,06,57,331,36*78
$GPRMC,033328.435,V,3454.926,N,08102.489,W,99.2,1.13,301117,,E*49
$GPGGA,033329.435,3454.926,N,08102.489,W,0,04,0.3,,M,,M,,*77
$GPGLL,3454.926,N,08102.489,W,033330.435,V*36
$GPGSA,A,2,17,16,12,08,06,06,,,,,,,0.1,0.4,0.7*3B
$GPGSV,2,1,06,17,26,101,74,16,57,023,59,12,29,329,38,08,34,204,75*75
$GPGSV,2,2,06,06,21,009,77,06,61,044,69*7D
$GPRMC,033334.435,V,3454.926,N,08102.487,W,59.3,1.04,301117,,E*41
$GPGGA,033335.435,3454.926,N,08102.487,W,0,04,0.4,,M,,M,,*73
$GPGLL,3454.926,N,08102.487,W,033336.435,V*3E
$GPGSA,A,2,17,16,12,08,06,06,,,,,,,0.7,0.4,0.5*3F
$GPGSV,2,1,06,17,59,081,31,16,33,297,46,12,28,266,39,08,12,355,51*79
$GPGSV,2,2,06,06,86,263,87,06,68,054,19*7E
$GPRMC,033340.435,V,3454.926,N,08102.486,W,38.2,1.05,301117,,E*44
$GPGGA,033341.435,3454.926,N,08102.486,W,0,04,0.4,,M,,M,,*71
$GPGLL,3454.926,N,08102.486,W,033342.435,V*3C
$GPGSA,A,2,17,16,12,08,06,06,,,,,,,0.8,0.1,1.0*31
$GPGSV,2,1,06,17,37,196,62,16,62,210,36,12,77,105,83,08,77,342,38*7B
$GPGSV,2,2,06,06,62,201,56,06,63,354,81*75
$GPRMC,033346.435,V,3454.926,N,08102.484,W,88.8,0.98,301117,,E*44
$GPGGA,033347.435,3454.926,N,08102.484,W,0,04,0.1,,M,,M,,*70
$GPGLL,3454.926,N,08102.484,W,033348.435,V*34
$GPGSA,A,2,17,16,12,08,06,06,,,,,,,0.9,0.2,0.9*3B
$GPGSV,2,1,06,17,55,318,33,16,09,112,84,12,19,266,31,08,22,355,38*7B
$GPGSV,2,2,06,06,27,070,25,06,45,264,38*70
$GPRMC,033352.435,V,3454.926,N,08102.482,W,47.5,0.97,301117,,E*46
$GPGGA,033353.435,3454.926,N,08102.482,W,0,04,0.2,,M,,M,,*70
$GPGLL,3454.926,N,08102.482,W,033354.435,V*3F
$GPGSA,A,3,17,16,12,08,06,06,,,,,,,0.3,0.9,0.8*3A
$GPGSV,2,1,06,17,05,022,22,16,24,337,37,12,05,063,80,08,89,197,15*74
$GPGSV,2,2,06,06,37,103,32,06,23,154,20*7B
$GPRMC,033358.435,V,3454.926,N,08102.480,W,54.0,1.01,301117,,E*47
$GPGGA,033359.435,3454.926,N,08102.480,W,0,04,0.9,,M,,M,,*73
$GPGLL,3454.926,N,08102.480,W,033400.435,V*3B
$GPGSA,A,3,17,16,12,08,06,06,,,,,,,0.6,0.4,0.9*33
$GPGSV,2,1,06,17,12,030,74,16,50,119,45,12,82,203,76,08,79,121,45*7F
$GPGSV,2,2,06,06,34,253,23,06,44,352,80*71
$GPRMC,033404.435,V,3454.926,N,08102.478,W,89.8,1.05,301117,,E*42
$GPGGA,033405.435,3454.926,N,08102.478,W,0,04,0.4,,M,,M,,*77
$GPGLL,3454.926,N,08102.478,W,033406.435,V*3A
$GPGSA,A,2,17,16,12,08,06,06,,,,,,,0.2,0.3,0.4*3C
$GPGSV,2,1,06,17,37,339,51,16,28,093,30,12,58,060,56,08,85,195,54*75
$GPGSV,2,2,06,06,57,276,27,06,84,080,55*7F
$GPRMC,033410.435,V,3454.925,N,08102.477,W,35.5,1.12,301117,,E*47
$GPGGA,033411.435,3454.925,N,08102.477,W,0,04,0.3,,M,,M,,*79
$GPGLL,3454.925,N,08102.477,W,033412.435,V*33
$GPGSA,A,3,17,16,12,08,06,06,,,,,,,0.0,0.1,0.1*38
$GPGSV,2,1,06,17,65,014,58,16,25,098,60,12,09,226,73,08,40,101,63*77
$GPGSV,2,2,06,06,21,283,59,06,74,277,56*7B
$GPRMC,033416.435,V,3454.925,N,08102.475,W,82.2,1.07,301117,,E*4C
$GPGGA,033417.435,3454.925,N,08102.475,W,0,04,0.1,,M,,M,,*7F
$GPGLL,3454.925,N,08102.475,W,033418.435,V*3B
$GPGSA,A,3,17,16,12,08,06,06,,,,,,,0.2,0.1,0.0*3B
$GPGSV,2,1,06,17,56,146,38,16,84,130,30,12,66,036,23,08,12,137,16*75
$GPGSV,2,2,06,06,37,249,17,06,58,236,33*78
$GPRMC,033422.435,V,3454.925,N,08102.473,W,76.9,0.97,301117,,E*45
$GPGGA,033423.435,3454.925,N,08102.473,W,0,04,0.1,,M,,M,,*7E
$GPGLL,3454.925,N,08102.473,W,033424.435,V*32
$GPGSA,A,3,17,16,12,08,06,06,,,,,,,0.6,0.6,0.0*38
$GPGSV,2,1,06,17,40,143,22,16,62,081,23,12,18,300,32,08,75,309,45*7A
$GPGSV,2,2,06,06,68,274,19,06,30,333,79*76
$GPRMC,033428.435,V,3454.925,N,08102.471,W,25.5,0.97,301117,,E*47
$GPGGA,033429.435,3454.925,N,08102.471,W,0,04,0.6,,M,,M,,*71
$GPGLL,3454.925,N,08102.471,W,033430.435,V*35
$GPGSA,A,3,17,16,12,08,06,06,,,,,,,0.2,0.8,0.7*35
$GPGSV,2,1,06,17,06,034,51,16,57,160,87,12,25,203,87,08,17,354,38*7F
$GPGSV,2,2,06,06,58,145,73,06,86,260,70*7B
$GPRMC,033434.435,V,3454.925,N,08102.469,W,88.5,1.05,301117,,E*4E
$GPGGA,033435.435,3454.925,N,08102.469,W,0,04,0.8,,M,,M,,*7B
$GPGLL,3454.925,N,08102.469,W,033436.435,V*3A
$GPGSA,A,2,17,16,12,08,06,06,,,,,,,0.5,0.2,0.8*36
$GPGSV,2,1,06,17,28,203,60,16,38,220,53,12,14,105,51,08,75,035,24*71
$GPGSV,2,2,06,06,07,162,66,06,05,337,60*79
$GPRMC,033440.435,V,3454.925,N,08102.468,W,80.4,1.05,301117,,E*45
$GPGGA,033441.435,3454.925,N,08102.468,W,0,04,0.2,,M,,M,,*73
$GPGLL,3454.925,N,08102.468,W,033442.435,V*38
$GPGSA,A,2,17,16,12,08,06,06,,,,,,,0.6,0.1,1.0*3F
$GPGSV,2,1,06,17,73,267,81,16,45,348,35,12,21,033,85,08,82,286,24*7E
$GPGSV,2,2,06,06,60,335,53,06,13,015,72*79
$GPRMC,033446.435,V,3454.925,N,08102.466,W,84.4,1.13,301117,,E*4E
$GPGGA,033447.435,3454.925,N,08102.466,W,0,04,0.1,,M,,M,,*78
$GPGLL,3454.925,N,08102.466,W,033448.435,V*3C
$GPGSA,A,3,17,16,12,08,06,06,,,,,,,0.6,0.4,1.0*3B
$GPGSV,2,1,06,17,49,058,70,16,56,234,49,12,37,040,23,08,81,061,62*71
$GPGSV,2,2,06,06,75,123,28,06,60,305,63*72
$GPRMC,033452.435,V,3454.924,N,08102.464,W,3.1,1.10,301117,,E*71
$GPGGA,033453.435,3454.924,N,08102.464,W,0,04,0.4,,M,,M,,*7B
$GPGLL,3454.924,N,08102.464,W,033454.435,V*32
$GPGSA,A,2,17,16,12,08,06,06,,,,,,,0.3,0.7,0.7*3A
$GPGSV,2,1,06,17,16,206,74,16,47,283,19,12,76,080,64,08,44,175,24*7A
$GPGSV,2,2,06,06,23,340,29,06,61,090,74*7F
$GPRMC,033458.435,V,3454.924,N,08102.462,W,49.9,1.09,301117,,E*43
$GPGGA,033459.435,3454.924,N,08102.462,W,0,04,0.7,,M,,M,,*74
$GPGLL,3454.924,N,08102.462,W,033500.435,V*34
$GPGSA,A,2,17,16,12,08,06,06,,,,,,,0.4,0.5,0.8*30
$GPGSV,2,1,06,17,77,200,69,16,21,189,32,12,17,263,20,08,52,123,88*7D
$GPGSV,2,2,06,06,67,207,62,06,82,018,89*7D
$GPRMC,033504.435,V,3454.924,N,08102.461,W,51.6,1.05,301117,,E*42
$GPGGA,033505.435,3454.924,N,08102.461,W,0,04,0.5,,M,,M,,*7D
$GPGLL,3454.924,N,08102.461,W,033506.435,V*31
$GPGSA,A,3,17,16,12,08,06,06,,,,,,,0.2,0.3,0.2*3B
$GPGSV,2,1,06,17,63,175,21,16,16,188,23,12,31,322,21,08,82,089,41*78
$GPGSV,2,2,06,06,80,025,72,06,45,056,17*71
$GPRMC,033510.435,V,3454.924,N,08102.459,W,18.3,1.16,301117,,E*46
$GPGGA,033511.435,3454.924,N,08102.459,W,0,04,0.3,,M,,M,,*75
$GPGLL,3454.924,N,08102.459,W,033512.435,V*3F
$GPGSA,A,2,17,16,12,08,06,06,,,,,,,0.2,0.3,0.2*3A
$GPGSV,2,1,06,17,68,084,48,16,07,087,80,12,62,160,77,08,53,152,49*76
$GPGSV,2,2,06,06,88,250,64,06,35,103,38*75
$GPRMC,033516.435,V,3454.923,N,08102.457,W,80.6,1.07,301117,,E*4D
$GPGGA,033517.435,3454.923,N,08102.457,W,0,04,0.3,,M,,M,,*7A
$GPGLL,3454.923,N,08102.457,W,033518.435,V*3C
$GPGSA,A,2,17,16,12,08,06,06,,,,,,,0.3,0.4,0.8*36
$GPGSV,2,1,06,17,85,212,22,16,50,228,31,12,43,049,71,08,13,066,40*7F
$GPGSV,2,2,06,06,79,299,24,06,22,246,73*71
$GPRMC,033522.435,V,3454.923,N,08102.455,W,83.7,1.00,301117,,E*4D
$GPGGA,033523.435,3454.923,N,08102.455,W,0,04,0.4,,M,,M,,*78
$GPGLL,3454.923,N,08102.455,W,033524.435,V*31
$GPGSA,A,2,17,16,12,08,06,06,,,,,,,0.2,0.7,0.6*3A
$GPGSV,2,1,06,17,74,074,78,16,20,153,35,12,49,329,30,08,33,225,44*79
$GPGSV,2,2,06,06,82,259,51,06,78,007,30*74
$GPRMC,033528.435,V,3454.923,N,08102.453,W,38.6,1.07,301117,,E*47
$GPGGA,033529.435,3454.923,N,08102.453,W,0,04,0.7,,M,,M,,*77
$GPGLL,3454.923,N,08102.453,W,033530.435,V*32
$GPGSA,A,3,17,16,12,08,06,06,,,,,,,0.7,0.8,0.2*35
$GPGSV,2,1,06,17,38,178,21,16,50,234,36,12,31,215,25,08,79,280,56*71
$GPGSV,2,2,06,06,82,049,41,06,40,116,36*7A
$GPRMC,033534.435,V,3454.923,N,08102.452,W,76.8,1.05,301117,,E*4D
$GPGGA,033535.435,3454.923,N,08102.452,W,0,04,0.8,,M,,M,,*74
$GPGLL,3454.923,N,08102.452,W,033536.435,V*35
$GPGSA,A,2,17,16,12,08,06,06,,,,,,,0.9,0.6,0.0*36
$GPGSV,2,1,06,17,22,189,38,16,11,094,46,12,55,345,62,08,74,252,29*79
$GPGSV,2,2,06,06,08,317,75,06,15,255,77*76
$GPRMC,033540.435,V,3454.923,N,08102.450,W,25.7,1.04,301117,,E*44
$GPGGA,033541.435,3454.923,N,08102.450,W,0,04,0.6,,M,,M,,*7B
$GPGLL,3454.923,N,08102.450,W,033542.435,V*34
$GPGSA,A,2,17,16,12,08,06,06,,,,,,,0.2,0.7,0.3*3F
$GPGSV,2,1,06,17,67,170,75,16,89,292,66,12,23,353,76,08,19,161,51*74
$GPGSV,2,2,06,06,75,326,58,06,64,000,37*71
$GPRMC,033546.435,V,3454.923,N,08102.448,W,70.4,1.08,301117,,E*44
$GPGGA,033547.435,3454.923,N,08102.448,W,0,04,0.7,,M,,M,,*75
$GPGLL,3454.923,N,08102.448,W,033548.435,V*37
$GPGSA,A,2,17,16,12,08,06,06,,,,,,,0.6,0.1,0.5*3B
$GPGSV,2,1,06,17,30,043,51,16,47,067,54,12,55,272,46,08,17,006,52*77
$GPGSV,2,2,06,06,77,351,19,06,57,066,86*7C
$GPRMC,033552.435,V,3454.923,N,08102.446,W,58.4,0.99,301117,,E*4C
$GPGGA,033553.435,3454.923,N,08102.446,W,0,04,0.1,,M,,M,,*78
$GPGLL,3454.923,N,08102.446,W,033554.435,V*34
$GPGSA,A,2,17,16,12,08,06,06,,,,,,,0.6,0.6,0.9*30
$GPGSV,2,1,06,17,82,149,63,16,46,301,35,12,19,316,46,08,65,053,50*7D
$GPGSV,2,2,06,06,59,016,20,06,21,164,88*76
$GPRMC,033558.435,V,3454.923,N,08102.444,W,48.7,0.89,301117,,E*47
$GPGGA,033559.435,3454.923,N,08102.444,W,0,04,0.6,,M,,M,,*77
$GPGLL,3454.923,N,08102.444,W,033600.435,V*34
$GPGSA,A,3,17,16,12,08,06,06,,,,,,,0.5,0.2,1.0*3E
$GPGSV,2,1,06,17,42,261,46,16,17,239,39,12,79,080,61,08,56,107,61*70
$GPGSV,2,2,06,06,68,117,31,06,26,325,31*76
$GPRMC,033604.435,V,3454.923,N,08102.443,W,27.0,0.97,301117,,E*4B
$GPGGA,033605.435,3454.923,N,08102.443,W,0,04,0.2,,M,,M,,*7E
$GPGLL,3454.923,N,08102.443,W,033606.435,V*35
$GPGSA,A,2,17,16,12,08,06,06,,,,,,,0.8,0.9,0.3*3B
$GPGSV,2,1,06,17,63,033,63,16,13,257,62,12,69,219,72,08,42,269,55*7B
$GPGSV,2,2,06,06,66,280,70,06,87,251,56*78
$GPRMC,033610.435,V,3454.924,N,08102.441,W,80.8,0.88,301117,,E*40
$GPGGA,033611.435,3454.924,N,08102.441,W,0,04,0.9,,M,,M,,*75
$GPGLL,3454.924,N,08102.441,W,033612.435,V*35
$GPGSA,A,3,17,16,12,08,06,06,,,,,,,0.7,0.5,0.3*39
$GPGSV,2,1,06,17,05,233,70,16,17,077,19,12,72,094,53,08,88,167,44*76
$GPGSV,2,2,06,06,58,207,88,06,89,070,21*72
$GPRMC,033616.435,V,3454.924,N,08102.439,W,33.5,0.88,301117,,E*4C
$GPGGA,033617.435,3454.924,N,08102.439,W,0,04,0.5,,M,,M,,*70
$GPGLL,3454.924,N,08102.439,W,033618.435,V*30
$GPGSA,A,2,17,16,12,08,06,06,,,,,,,0.3,0.1,0.4*3F
$GPGSV,2,1,06,17,62,022,21,16,51,301,63,12,28,191,50,08,13,045,15*73
$GPGSV,2,2,06,06,44,016,41,06,78,055,50*77
$GPRMC,033622.435,V,3454.924,N,08102.437,W,69.6,0.77,301117,,E*49
$GPGGA,033623.435,3454.924,N,08102.437,W,0,04,0.1,,M,,M,,*7D
$GPGLL,3454.924,N,08102.437,W,033624.435,V*31
$GPGSA,A,3,17,16,12,08,06,06,,,,,,,0.4,0.0,0.6*3A
$GPGSV,2,1,06,17,56,328,88,16,13,237,49,12,67,269,48,08,33,024,66*73
$GPGSV,2,2,06,06,22,197,26,06,21,048,54*7A
$GPRMC,033628.435,V,3454.925,N,08102.436,W,28.8,0.76,301117,,E*49
$GPGGA,033629.435,3454.925,N,08102.436,W,0,04,0.0,,M,,M,,*76
$GPGLL,3454.925,N,08102.436,W,033630.435,V*34
$GPGSA,A,2,17,16,12,08,06,06,,,,,,,0.9,0.3,0.6*35
$GPGSV,2,1,06,17,68,195,51,16,73,236,50,12,23,277,29,08,60,117,43*79
$GPGSV,2,2,06,06,67,105,59,06,58,000,16*7C
$GPRMC,033634.435,V,3454.926,N,08102.434,W,47.8,0.75,301117,,E*4F
$GPGGA,033635.435,3454.926,N,08102.434,W,0,04,0.3,,M,,M,,*79
$GPGLL,3454.926,N,08102.434,W,033636.435,V*33
$GPGSA,A,2,17,16,12,08,06,06,,,,,,,0.3,0.4,0.3*3D
$GPGSV,2,1,06,17,19,005,78,16,49,022,84,12,63,316,36,08,74,271,76*77
$GPGSV,2,2,06,06,68,173,43,06,50,233,83*7F
$GPRMC,033640.435,V,3454.926,N,08102.432,W,6.3,0.77,301117,,E*76
$GPGGA,033641.435,3454.926,N,08102.432,W,0,04,0.4,,M,,M,,*7B
$GPGLL,3454.926,N,08102.432,W,033642.435,V*36
$GPGSA,A,3,17,16,12,08,06,06,,,,,,,0.8,0.5,1.0*34
$GPGSV,2,1,06,17,88,271,59,16,60,304,68,12,64,303,82,08,31,177,51*7E
$GPGSV,2,2,06,06,65,126,46,06,67,069,68*7B
$GPRMC,033646.435,V,3454.927,N,08102.431,W,84.0,0.82,301117,,E*41
$GPGGA,033647.435,3454.927,N,08102.431,W,0,04,0.5,,M,,M,,*7E
$GPGLL,3454.927,N,08102.431,W,033648.435,V*3E
$GPGSA,A,2,17,16,12,08,06,06,,,,,,,0.5,0.1,0.1*3C
$GPGSV,2,1,06,17,69,199,27,16,86,279,31,12,08,257,77,08,48,084,64*77
$GPGSV,2,2,06,06,86,086,26,06,59,149,57*79
$GPRMC,033652.435,V,3454.927,N,08102.429,W,23.8,0.92,301117,,E*49
$GPGGA,033653.435,3454.927,N,08102.429,W,0,04,0.1,,M,,M,,*76
$GPGLL,3454.927,N,08102.429,W,033654.435,V*3A
$GPGSA,A,2,17,16,12,08,06,06,,,,,,,0.5,0.6,0.8*32
$GPGSV,2,1,06,17,35,275,83,16,22,031,62,12,78,003,47,08,44,091,64*78
$GPGSV,2,2,06,06,27,119,67,06,15,246,34*71
$GPRMC,033658.435,V,3454.927,N,08102.427,W,4.2,0.96,301117,,E*76
$GPGGA,033659.435,3454.927,N,08102.427,W,0,04,0.6,,M,,M,,*75
$GPGLL,3454.927,N,08102.427,W,033700.435,V*34
$GPGSA,A,2,17,16,12,08,06,06,,,,,,,0.1,0.1,0.1*38
$GPGSV,2,1,06,17,78,338,23,16,27,067,53,12,62,356,25,08,77,032,68*7E
$GPGSV,2,2,06,06,34,210,54,06,30,159,69*7B
$GPRMC,033704.435,V,3454.928,N,08102.425,W,14.6,0.90,301117,,E*40
$GPGGA,033705.435,3454.928,N,08102.425,W,0,04,0.1,,M,,M,,*77
$GPGLL,3454.928,N,08102.425,W,033706.435,V*3F
$GPGSA,A,2,17,16,12,08,06,06,,,,,,,0.8,0.3,0.5*37
$GPGSV,2,1,06,17,20,093,29,16,41,093,37,12,20,301,51,08,87,281,17*78
$GPGSV,2,2,06,06,33,282,38,06,16,161,76*7C
$GPRMC,033710.435,V,3454.928,N,08102.424,W,29.6,0.88,301117,,E*43
$GPGGA,033711.435,3454.928,N,08102.424,W,0,04,0.3,,M,,M,,*71
$GPGLL,3454.928,N,08102.424,W,033712.435,V*3B
$GPGSA,A,3,17,16,12,08,06,06,,,,,,,0.7,0.7,0.6*3E
$GPGSV,2,1,06,17,35,058,17,16,84,181,89,12,47,347,89,08,32,070,41*7F
$GPGSV,2,2,06,06,88,133,18,06,47,122,52*72
$GPRMC,033716.435,V,3454.928,N,08102.422,W,87.9,0.91,301117,,E*40
$GPGGA,033717.435,3454.928,N,08102.422,W,0,04,0.7,,M,,M,,*75
$GPGLL,3454.928,N,08102.422,W,033718.435,V*37
$GPGSA,A,2,17,16,12,08,06,06,,,,,,,0.0,0.9,0.2*32
$GPGSV,2,1,06,17,51,353,24,16,66,144,33,12,76,327,46,08,47,248,83*73
$GPGSV,2,2,06,06,56,218,75,06,79,353,87*71
$GPRMC,033722.435,V,3454.928,N,08102.420,W,5.9,0.95,301117,,E*7B
$GPGGA,033723.435,3454.928,N,08102.420,W,0,04,0.9,,M,,M,,*7E
$GPGLL,3454.928,N,08102.420,W,033724.435,V*3A
$GPGSA,A,3,17,16,12,08,06,06,,,,,,,0.2,0.5,0.6*39
$GPGSV,2,1,06,17,67,286,25,16,34,149,23,12,37,215,63,08,28,058,67*77
$GPGSV,2,2,06,06,30,326,24,06,72,177,86*77
$GPRMC,033728.435,V,3454.929,N,08102.418,W,28.6,0.86,301117,,E*49
$GPGGA,033729.435,3454.929,N,08102.418,W,0,04,0.5,,M,,M,,*72
$GPGLL,3454.929,N,08102.418,W,033730.435,V*35
$GPGSA,A,2,17,16,12,08,06,06,,,,,,,0.6,0.2,0.4*39
$GPGSV,2,1,06,17,52,010,88,16,24,289,62,12,68,057,34,08,46,119,48*7D
$GPGSV,2,2,06,06,86,353,43,06,31,191,60*7E
$GPRMC,033734.435,V,3454.929,N,08102.416,W,10.8,0.94,301117,,E*4C
$GPGGA,033735.435,3454.929,N,08102.416,W,0,04,0.2,,M,,M,,*76
$GPGLL,3454.929,N,08102.416,W,033736.435,V*3D
$GPGSA,A,3,17,16,12,08,06,06,,,,,,,0.8,0.1,0.7*36
$GPGSV,2,1,06,17,48,350,82,16,20,272,28,12,67,323,86,08,51,089,60*77
$GPGSV,2,2,06,06,86,071,33,06,63,267,84*7D
$GPRMC,033740.435,V,3454.929,N,08102.415,W,6.7,0.92,301117,,E*72
$GPGGA,033741.435,3454.929,N,08102.415,W,0,04,0.1,,M,,M,,*75
$GPGLL,3454.929,N,08102.415,W,033742.435,V*3D
$GPGSA,A,2,17,16,12,08,06,06,,,,,,,0.9,0.7,0.9*3E
$GPGSV,2,1,06,17,42,060,24,16,39,066,29,12,42,044,55,08,53,185,72*78
$GPGSV,2,2,06,06,50,322,34,06,55,214,68*77
$GPRMC,033746.435,V,3454.929,N,08102.413,W,78.5,0.99,301117,,E*42
$GPGGA,033747.435,3454.929,N,08102.413,W,0,04,0.7,,M,,M,,*73
$GPGLL,3454.929,N,08102.413,W,033748.435,V*31
$GPGSA,A,3,17,16,12,08,06,06,,,,,,,0.9,0.8,0.2*3B
$GPGSV,2,1,06,17,79,214,45,16,36,325,30,12,23,358,48,08,89,232,40*79
$GPGSV,2,2,06,06,09,147,17,06,10,030,15*74
$GPRMC,033752.435,V,3454.929,N,08102.411,W,32.8,0.90,301117,,E*4F
$GPGGA,033753.435,3454.929,N,08102.411,W,0,04,0.8,,M,,M,,*7B
$GPGLL,3454.929,N,08102.411,W,033754.435,V*3E
$GPGSA,A,3,17,16,12,08,06,06,,,,,,,0.0,0.5,0.8*35
$GPGSV,2,1,06,17,81,215,49,16,68,070,62,12,29,148,35,08,55,140,59*70
$GPGSV,2,2,06,06,20,068,24,06,31,180,33*7E
$GPRMC,033758.435,V,3454.930,N,08102.409,W,83.4,0.83,301117,,E*40
$GPGGA,033759.435,3454.930,N,08102.409,W,0,04,0.5,,M,,M,,*7D
$GPGLL,3454.930,N,08102.409,W,033800.435,V*31
$GPGSA,A,3,17,16,12,08,06,06,,,,,,,0.7,0.3,0.1*3D
$GPGSV,2,1,06,17,49,291,26,16,58,287,22,12,08,034,15,08,75,164,69*70
$GPGSV,2,2,06,06,53,311,89,06,72,213,74*7D
$GPRMC,033804.435,V,3454.930,N,08102.408,W,58.5,0.94,301117,,E*46
$GPGGA,033805.435,3454.930,N,08102.408,W,0,04,0.3,,M,,M,,*7C
$GPGLL,3454.930,N,08102.408,W,033806.435,V*36
$GPGSA,A,2,17,16,12,08,06,06,,,,,,,0.9,0.5,0.3*36
$GPGSV,2,1,06,17,25,281,55,16,16,032,18,12,89,008,65,08,63,272,65*7E
$GPGSV,2,2,06,06,21,259,67,06,43,143,54*73
$GPRMC,033810.435,V,3454.930,N,08102.406,W,70.7,0.98,301117,,E*49
$GPGGA,033811.435,3454.930,N,08102.406,W,0,04,0.5,,M,,M,,*71
$GPGLL,3454.930,N,08102.406,W,033812.435,V*3D
$GPGSA,A,3,17,16,12,08,06,06,,,,,,,0.8,0.2,0.0*32
$GPGSV,2,1,06,17,07,313,63,16,42,224,41,12,58,330,82,08,35,093,52*7E
$GPGSV,2,2,06,06,10,006,61,06,17,007,60*78
$GPRMC,033816.435,V,3454.930,N,08102.404,W,19.1,1.01,301117,,E*45
$GPGGA,033817.435,3454.930,N,08102.404,W,0,04,0.2,,M,,M,,*72
$GPGLL,3454.930,N,08102.404,W,033818.435,V*35
$GPGSA,A,2,17,16,12,08,06,06,,,,,,,1.0,0.1,0.9*30
$GPGSV,2,1,06,17,61,003,78,16,36,117,31,12,31,336,46,08,27,217,73*7E
$GPGSV,2,2,06,06,20,320,66,06,48,017,50*73
$GPRMC,033822.435,V,3454.930,N,08102.402,W,1.3,0.94,301117,,E*72
$GPGGA,033823.435,3454.930,N,08102.402,W,0,04,0.1,,M,,M,,*70
$GPGLL,3454.930,N,08102.402,W,033824.435,V*3C
$GPGSA,A,2,17,16,12,08,06,06,,,,,,,0.3,0.5,0.7*38
$GPGSV,2,1,06,17,70,198,89,16,84,322,56,12,19,130,79,08,16,077,45*7E
$GPGSV,2,2,06,06,77,331,68,06,64,268,81*77
$GPRMC,033828.435,V,3454.930,N,08102.400,W,0.5,1.01,301117,,E*70
$GPGGA,033829.435,3454.930,N,08102.400,W,0,04,0.5,,M,,M,,*7C
$GPGLL,3454.930,N,08102.400,W,033830.435,V*3B
$GPGSA,A,3,17,16,12,08,06,06,,,,,,,0.1,0.2,0.3*38
$GPGSV,2,1,06,17,12,228,65,16,74,249,84,12,72,118,23,08,40,156,67*75
$GPGSV,2,2,06,06,24,059,22,06,16,318,67*79
$GPRMC,033834.435,V,3454.930,N,08102.399,W,59.0,0.93,301117,,E*49
$GPGGA,033835.435,3454.930,N,08102.399,W,0,04,0.2,,M,,M,,*71
$GPGLL,3454.930,N,08102.399,W,033836.435,V*3A
$GPGSA,A,3,17,16,12,08,06,06,,,,,,,0.7,0.1,0.4*3A
$GPGSV,2,1,06,17,72,143,23,16,44,330,63,12,56,080,50,08,66,005,65*79
$GPGSV,2,2,06,06,35,034,81,06,80,032,17*78
$GPRMC,033840.435,V,3454.930,N,08102.397,W,21.7,1.04,301117,,E*43
$GPGGA,033841.435,3454.930,N,08102.397,W,0,04,0.1,,M,,M,,*7F
$GPGLL,3454.930,N,08102.397,W,033842.435,V*37
$GPGSA,A,2,17,16,12,08,06,06,,,,,,,0.7,0.1,0.5*3A
$GPGSV,2,1,06,17,88,252,49,16,70,323,39,12,09,235,27,08,35,211,88*7D
$GPGSV,2,2,06,06,44,307,36,06,06,027,51*79
$GPRMC,033846.435,V,3454.930,N,08102.395,W,59.1,1.13,301117,,E*48
$GPGGA,033847.435,3454.930,N,08102.395,W,0,04,0.1,,M,,M,,*7B
$GPGLL,3454.930,N,08102.395,W,033848.435,V*3F
$GPGSA,A,3,17,16,12,08,06,06,,,,,,,0.5,0.8,0.7*32
$GPGSV,2,1,06,17,88,228,86,16,31,174,49,12,63,043,48,08,79,022,80*75
$GPGSV,2,2,06,06,15,272,88,06,23,346,28*76
$GPRMC,033852.435,V,3454.930,N,08102.393,W,12.3,0.98,301117,,E*44
$GPGGA,033853.435,3454.930,N,08102.393,W,0,04,0.8,,M,,M,,*71
$GPGLL,3454.930,N,08102.393,W,033854.435,V*34
$GPGSA,A,3,17,16,12,08,06,06,,,,,,,0.2,0.7,0.6*3B
$GPGSV,2,1,06,17,40,173,54,16,45,224,17,12,68,053,76,08,86,184,38*74
$GPGSV,2,2,06,06,77,073,84,06,50,128,39*73
$GPRMC,033858.435,V,3454.930,N,08102.391,W,49.1,0.96,301117,,E*4E
$GPGGA,033859.435,3454.930,N,08102.391,W,0,04,0.7,,M,,M,,*76
$GPGLL,3454.930,N,08102.391,W,033900.435,V*36
$GPGSA,A,2,17,16,12,08,06,06,,,,,,,0.7,0.9,0.6*31
$GPGSV,2,1,06,17,48,314,57,16,46,172,43,12,37,283,76,08,44,227,42*72
$GPGSV,2,2,06,06,38,238,23,06,12,004,67*7A
$GPRMC,033904.435,V,3454.930,N,08102.390,W,75.9,0.94,301117,,E*42
$GPGGA,033905.435,3454.930,N,08102.390,W,0,04,0.9,,M,,M,,*71
$GPGLL,3454.930,N,08102.390,W,033906.435,V*31
$GPGSA,A,2,17,16,12,08,06,06,,,,,,,0.9,0.5,0.7*32
$GPGSV,2,1,06,17,59,015,40,16,10,310,81,12,10,026,62,08,20,329,33*7B
$GPGSV,2,2,06,06,26,348,84,06,28,079,73*78
$GPRMC,033910.435,V,3454.930,N,08102.388,W,28.6,1.00,301117,,E*45
$GPGGA,033911.435,3454.930,N,08102.388,W,0,04,0.5,,M,,M,,*71
$GPGLL,3454.930,N,08102.388,W,033912.435,V*3D
$GPGSA,A,3,17,16,12,08,06,06,,,,,,,0.8,0.1,1.0*30
$GPGSV,2,1,06,17,89,112,46,16,70,346,82,12,89,133,31,08,77,310,20*79
$GPGSV,2,2,06,06,56,040,55,06,50,151,76*79
$GPRMC,033916.435,V,3454.930,N,08102.386,W,10.4,1.01,301117,,E*45
$GPGGA,033917.435,3454.930,N,08102.386,W,0,04,0.1,,M,,M,,*7D
$GPGLL,3454.930,N,08102.386,W,033918.435,V*39
$GPGSA,A,3,17,16,12,08,06,06,,,,,,,0.2,0.0,0.7*3D
$GPGSV,2,1,06,17,81,039,42,16,22,242,49,12,09,123,82,08,61,049,83*78
$GPGSV,2,2,06,06,60,229,60,06,73,277,31*72
$GPRMC,033922.435,V,3454.930,N,08102.384,W,99.5,1.04,301117,,E*45
$GPGGA,033923.435,3454.930,N,08102.384,W,0,04,0.0,,M,,M,,*79
$GPGLL,3454.930,N,08102.384,W,033924.435,V*34
$GPGSA,A,3,17,16,12,08,06,06,,,,,,,0.9,0.8,0.8*31
$GPGSV,2,1,06,17,49,152,66,16,60,272,30,12,35,006,54,08,60,121,68*74
$GPGSV,2,2,06,06,54,158,18,06,11,182,78*7F
$GPRMC,033928.435,V,3454.930,N,08102.382,W,32.9,1.13,301117,,E*42
$GPGGA,033929.435,3454.930,N,08102.382,W,0,04,0.8,,M,,M,,*7D
$GPGLL,3454.930,N,08102.382,W,033930.435,V*37
$GPGSA,A,3,17,16,12,08,06,06,,,,,,,0.9,0.3,0.8*3A
$GPGSV,2,1,06,17,81,217,69,16,18,062,54,12,71,023,78,08,84,301,68*70
$GPGSV,2,2,06,06,83,249,41,06,15,283,65*70
$GPRMC,033934.435,V,3454.929,N,08102.381,W,45.0,1.34,301117,,E*48
$GPGGA,033935.435,3454.929,N,08102.381,W,0,04,0.3,,M,,M,,*70
$GPGLL,3454.929,N,08102.381,W,033936.435,V*3A
$GPGSA,A,2,17,16,12,08,06,06,,,,,,,0.7,0.3,0.0*3D
$GPGSV,2,1,06,17,33,073,59,16,82,241,39,12,37,319,44,08,45,081,40*7A
$GPGSV,2,2,06,06,19,096,34,06,22,249,63*75
$GPRMC,033940.435,V,3454.928,N,08102.379,W,34.9,1.30,301117,,E*46
$GPGGA,033941.435,3454.928,N,08102.379,W,0,04,0.3,,M,,M,,*75
$GPGLL,3454.928,N,08102.379,W,033942.435,V*3F
$GPGSA,A,2,17,16,12,08,06,06,,,,,,,0.5,0.6,0.1*3B
$GPGSV,2,1,06,17,80,352,42,16,36,326,54,12,63,260,51,08,72,227,34*7F
$GPGSV,2,2,06,06,52,235,24,06,06,127,57*7A
$GPRMC,033946.435,V,3454.927,N,08102.378,W,42.8,1.35,301117,,E*4B
$GPGGA,033947.435,3454.927,N,08102.378,W,0,04,0.6,,M,,M,,*78
$GPGLL,3454.927,N,08102.378,W,033948.435,V*3B
$GPGSA,A,2,17,16,12,08,06,06,,,,,,,0.3,0.7,0.9*34
$GPGSV,2,1,06,17,86,109,45,16,21,113,58,12,35,064,17,08,65,333,28*74
$GPGSV,2,2,06,06,82,060,53,06,87,302,57*79
$GPRMC,033952.435,V,3454.926,N,08102.376,W,44.6,1.44,301117,,E*4F
$GPGGA,033953.435,3454.926,N,08102.376,W,0,04,0.7,,M,,M,,*73
$GPGLL,3454.926,N,08102.376,W,033954.435,V*39
$GPGSA,A,2,17,16,12,08,06,06,,,,,,,0.2,0.7,0.3*3F
$GPGSV,2,1,06,17,11,027,37,16,61,120,32,12,61,044,40,08,58,212,31*7F
$GPGSV,2,2,06,06,20,201,76,06,50,084,80*7E
$GPRMC,033958.435,V,3454.925,N,08102.375,W,97.0,1.52,301117,,E*4A
$GPGGA,033959.435,3454.925,N,08102.375,W,0,04,0.7,,M,,M,,*79
$GPGLL,3454.925,N,08102.375,W,034000.435,V*36
$GPGSA,A,2,17,16,12,08,06,06,,,,,,,0.3,1.0,0.7*3C
$GPGSV,2,1,06,17,25,288,64,16,84,135,71,12,39,095,40,08,37,008,62*76
$GPGSV,2,2,06,06,85,080,23,06,85,012,75*77
$GPRMC,034004.435,V,3454.923,N,08102.375,W,15.4,2.02,301117,,E*43
$GPGGA,034005.435,3454.923,N,08102.375,W,0,04,1.0,,M,,M,,*7E
$GPGLL,3454.923,N,08102.375,W,034006.435,V*36
$GPGSA,A,2,17,16,12,08,06,06,,,,,,,0.5,0.7,0.5*3E
$GPGSV,2,1,06,17,67,070,46,16,39,220,40,12,43,018,48,08,47,319,15*72
$GPGSV,2,2,06,06,83,148,44,06,81,177,72*74
$GPRMC,034010.435,V,3454.921,N,08102.376,W,95.8,2.12,301117,,E*42
$GPGGA,034011.435,3454.921,N,08102.376,W,0,04,0.7,,M,,M,,*7C
$GPGLL,3454.921,N,08102.376,W,034012.435,V*32
$GPGSA,A,3,17,16,12,08,06,06,,,,,,,0.7,0.4,1.0*3A
$GPGSV,2,1,06,17,45,279,24,16,75,345,33,12,17,260,46,08,23,260,50*7D
$GPGSV,2,2,06,06,43,276,61,06,15,020,89*7B
$GPRMC,034016.435,V,3454.919,N,08102.376,W,14.6,2.19,301117,,E*43
$GPGGA,034017.435,3454.919,N,08102.376,W,0,04,0.4,,M,,M,,*72
$GPGLL,3454.919,N,08102.376,W,034018.435,V*33
$GPGSA,A,3,17,16,12,08,06,06,,,,,,,0.7,0.7,0.7*3F
$GPGSV,2,1,06,17,19,036,68,16,32,243,81,12,55,066,75,08,46,222,77*7A
$GPGSV,2,2,06,06,07,324,59,06,29,199,59*77
$GPRMC,034022.435,V,3454.918,N,08102.376,W,16.1,2.10,301117,,E*49
$GPGGA,034023.435,3454.918,N,08102.376,W,0,04,0.7,,M,,M,,*77
$GPGLL,3454.918,N,08102.376,W,034024.435,V*3D
$GPGSA,A,3,17,16,12,08,06,06,,,,,,,0.1,0.6,0.6*39
$GPGSV,2,1,06,17,44,338,36,16,26,349,67,12,45,175,27,08,82,071,87*74
$GPGSV,2,2,06,06,80,260,35,06,80,007,37*7E
$GPRMC,034028.435,V,3454.916,N,08102.377,W,18.9,2.14,301117,,E*4E
$GPGGA,034029.435,3454.916,N,08102.377,W,0,04,0.6,,M,,M,,*73
$GPGLL,3454.916,N,08102.377,W,034030.435,V*37
$GPGSA,A,3,17,16,12,08,06,06,,,,,,,0.5,0.6,0.6*3D
$GPGSV,2,1,06,17,47,339,53,16,81,013,76,12,87,083,31,08,68,084,73*70
$GPGSV,2,2,06,06,52,156,24,06,20,308,86*7B
$GPRMC,034034.435,V,3454.914,N,08102.377,W,20.1,2.03,301117,,E*44
$GPGGA,034035.435,3454.914,N,08102.377,W,0,04,0.6,,M,,M,,*7C
$GPGLL,3454.914,N,08102.377,W,034036.435,V*33
$GPGSA,A,2,17,16,12,08,06,06,,,,,,,0.5,0.6,0.6*3C
$GPGSV,2,1,06,17,12,288,23,16,41,021,28,12,46,334,65,08,45,264,89*7F
$GPGSV,2,2,06,06,42,250,26,06,84,311,68*7B
$GPRMC,034040.435,V,3454.912,N,08102.377,W,78.1,1.95,301117,,E*40
$GPGGA,034041.435,3454.912,N,08102.377,W,0,04,0.6,,M,,M,,*79
$GPGLL,3454.912,N,08102.377,W,034042.435,V*36
$GPGSA,A,2,17,16,12,08,06,06,,,,,,,0.8,1.0,0.5*35
$GPGSV,2,1,06,17,37,275,81,16,60,148,84,12,51,248,21,08,64,331,67*77
$GPGSV,2,2,06,06,56,246,58,06,32,129,28*70
$GPRMC,034046.435,V,3454.910,N,08102.376,W,69.5,1.92,301117,,E*46
$GPGGA,034047.435,3454.910,N,08102.376,W,0,04,1.0,,M,,M,,*7B
$GPGLL,3454.910,N,08102.376,W,034048.435,V*3F
$GPGSA,A,2,17,16,12,08,06,06,,,,,,,0.4,0.5,0.9*31
$GPGSV,2,1,06,17,15,162,73,16,57,109,62,12,40,169,88,08,41,316,79*78
$GPGSV,2,2,06,06,39,028,41,06,77,224,51*7A
$GPRMC,034052.435,V,3454.909,N,08102.376,W,95.5,1.90,301117,,E*4A
$GPGGA,034053.435,3454.909,N,08102.376,W,0,04,0.5,,M,,M,,*72
$GPGLL,3454.909,N,08102.376,W,034054.435,V*3A
$GPGSA,A,2,17,16,12,08,06,06,,,,,,,0.1,0.7,0.4*3B
$GPGSV,2,1,06,17,89,263,30,16,31,023,38,12,62,199,63,08,26,188,69*71
$GPGSV,2,2,06,06,32,208,56,06,28,073,15*7D
$GPRMC,034058.435,V,3454.907,N,08102.376,W,63.7,2.01,301117,,E*4E
$GPGGA,034059.435,3454.907,N,08102.376,W,0,04,0.7,,M,,M,,*74
$GPGLL,3454.907,N,08102.376,W,034100.435,V*34
$GPGSA,A,2,17,16,12,08,06,06,,,,,,,0.4,0.2,0.3*3C
$GPGSV,2,1,06,17,32,266,40,16,38,013,52,12,74,108,23,08,16,001,78*7D
$GPGSV,2,2,06,06,22,213,66,06,58,133,28*79
$GPRMC,034104.435,V,3454.905,N,08102.376,W,76.3,2.00,301117,,E*45
$GPGGA,034105.435,3454.905,N,08102.376,W,0,04,0.2,,M,,M,,*7B
$GPGLL,3454.905,N,08102.376,W,034106.435,V*30
$GPGSA,A,2,17,16,12,08,06,06,,,,,,,0.2,0.7,0.7*3B
$GPGSV,2,1,06,17,11,191,79,16,77,128,62,12,06,132,15,08,40,120,43*7C
$GPGSV,2,2,06,06,51,231,25,06,33,244,65*7D
$GPRMC,034110.435,V,3454.903,N,08102.376,W,8.2,1.97,301117,,E*73
$GPGGA,034111.435,3454.903,N,08102.376,W,0,04,0.7,,M,,M,,*7D
$GPGLL,3454.903,N,08102.376,W,034112.435,V*33
$GPGSA,A,3,17,16,12,08,06,06,,,,,,,0.9,0.9,0.6*3E
$GPGSV,2,1,06,17,42,079,27,16,67,356,16,12,60,278,50,08,59,016,61*7F
$GPGSV,2,2,06,06,65,109,33,06,17,354,64*72
$GPRMC,034116.435,V,3454.901,N,08102.376,W,43.9,1.95,301117,,E*41
$GPGGA,034117.435,3454.901,N,08102.376,W,0,04,0.9,,M,,M,,*77
$GPGLL,3454.901,N,08102.376,W,034118.435,V*3B
$GPGSA,A,3,17,16,12,08,06,06,,,,,,,0.8,0.2,0.7*35
$GPGSV,2,1,06,17,39,221,66,16,79,290,64,12,63,246,52,08,18,273,77*77
$GPGSV,2,2,06,06,30,228,37,06,82,041,68*71
$GPRMC,034122.435,V,3454.900,N,08102.376,W,79.2,1.85,301117,,E*44
$GPGGA,034123.435,3454.900,N,08102.376,W,0,04,0.2,,M,,M,,*7A
$GPGLL,3454.900,N,08102.376,W,034124.435,V*35
$GPGSA,A,3,17,16,12,08,06,06,,,,,,,0.8,0.0,1.0*31
$GPGSV,2,1,06,17,46,350,18,16,35,117,47,12,56,032,21,08,58,336,86*7D
$GPGSV,2,2,06,06,22,278,39,06,39,057,66*70
$GPRMC,034128.435,V,3454.898,N,08102.375,W,42.0,1.81,301117,,E*43
$GPGGA,034129.435,3454.898,N,08102.375,W,0,04,0.0,,M,,M,,*71
$GPGLL,3454.898,N,08102.375,W,034130.435,V*33
$GPGSA,A,3,17,16,12,08,06,06,,,,,,,0.4,0.9,0.2*37
$GPGSV,2,1,06,17,71,348,16,16,23,046,49,12,63,278,20,08,86,167,73*76
$GPGSV,2,2,06,06,65,205,46,06,63,062,37*7C
$GPRMC,034134.435,V,3454.896,N,08102.375,W,67.2,1.82,301117,,E*46
$GPGGA,034135.435,3454.896,N,08102.375,W,0,04,0.9,,M,,M,,*7B
$GPGLL,3454.896,N,08102.375,W,034136.435,V*3B
$GPGSA,A,2,17,16,12,08,06,06,,,,,,,0.2,0.1,0.6*3C
$GPGSV,2,1,06,17,75,025,76,16,75,314,27,12,08,349,17,08,58,271,26*7E
$GPGSV,2,2,06,06,53,314,33,06,56,148,17*77
$GPRMC,034140.435,V,3454.895,N,08102.374,W,72.2,1.80,301117,,E*41
$GPGGA,034141.435,3454.895,N,08102.374,W,0,04,0.1,,M,,M,,*72
$GPGLL,3454.895,N,08102.374,W,034142.435,V*3A
$GPGSA,A,2,17,16,12,08,06,06,,,,,,,0.2,0.8,0.3*30
$GPGSV,2,1,06,17,89,122,74,16,71,192,76,12,20,145,70,08,52,263,79*73
$GPGSV,2,2,06,06,76,242,84,06,83,295,78*7C
$GPRMC,034146.435,V,3454.893,N,08102.374,W,49.2,1.86,301117,,E*4F
$GPGGA,034147.435,3454.893,N,08102.374,W,0,04,0.8,,M,,M,,*7B
$GPGLL,3454.893,N,08102.374,W,034148.435,V*36
$GPGSA,A,3,17,16,12,08,06,06,,,,,,,0.8,1.0,0.6*37
$GPGSV,2,1,06,17,33,320,65,16,21,156,65,12,57,125,43,08,71,226,19*7D
$GPGSV,2,2,06,06,75,307,19,06,86,264,54*7E
$GPRMC,034152.435,V,3454.891,N,08102.373,W,72.9,1.94,301117,,E*4F
$GPGGA,034153.435,3454.891,N,08102.373,W,0,04,1.0,,M,,M,,*72
$GPGLL,3454.891,N,08102.373,W,034154.435,V*3E
$GPGSA,A,3,17,16,12,08,06,06,,,,,,,0.2,0.5,0.9*36
$GPGSV,2,1,06,17,57,346,39,16,75,327,58,12,48,259,54,08,41,291,19*72
$GPGSV,2,2,06,06,08,282,52,06,54,007,41*7B
$GPRMC,034158.435,V,3454.889,N,08102.373,W,23.9,1.87,301117,,E*4A
$GPGGA,034159.435,3454.889,N,08102.373,W,0,04,0.5,,M,,M,,*75
$GPGLL,3454.889,N,08102.373,W,034200.435,V*35
$GPGSA,A,3,17,16,12,08,06,06,,,,,,,0.3,0.8,0.9*3A
$GPGSV,2,1,06,17,41,216,82,16,66,059,36,12,86,130,86,08,20,068,42*7D
$GPGSV,2,2,06,06,39,284,57,06,42,357,42*78
$GPRMC,034204.435,V,3454.887,N,08102.373,W,60.1,1.96,301117,,E*41
$GPGGA,034205.435,3454.887,N,08102.373,W,0,04,0.8,,M,,M,,*7C
$GPGLL,3454.887,N,08102.373,W,034206.435,V*3D
$GPGSA,A,2,17,16,12,08,06,06,,,,,,,0.6,0.0,0.9*36
$GPGSV,2,1,06,17,16,196,49,16,26,324,17,12,19,205,29,08,24,181,51*7B
$GPGSV,2,2,06,06,17,248,86,06,65,264,34*7D
$GPRMC,034210.435,V,3454.886,N,08102.373,W,52.4,2.01,301117,,E*4C
$GPGGA,034211.435,3454.886,N,08102.373,W,0,04,0.0,,M,,M,,*70
$GPGLL,3454.886,N,08102.373,W,034212.435,V*39
$GPGSA,A,2,17,16,12,08,06,06,,,,,,,0.5,0.9,0.1*34
$GPGSV,2,1,06,17,85,110,85,16,45,060,48,12,17,165,83,08,71,042,43*75
$GPGSV,2,2,06,06,26,182,87,06,76,141,57*78
$GPRMC,034216.435,V,3454.884,N,08102.373,W,12.8,2.06,301117,,E*47
$GPGGA,034217.435,3454.884,N,08102.373,W,0,04,0.9,,M,,M,,*7D
$GPGLL,3454.884,N,08102.373,W,034218.435,V*31
$GPGSA,A,3,17,16,12,08,06,06,,,,,,,0.1,0.2,0.4*3F
$GPGSV,2,1,06,17,82,249,51,16,23,281,89,12,74,259,20,08,57,235,83*7E
$GPGSV,2,2,06,06,30,197,45,06,13,030,17*75
$GPRMC,034222.435,V,3454.882,N,08102.374,W,77.6,2.18,301117,,E*43
$GPGGA,034223.435,3454.882,N,08102.374,W,0,04,0.2,,M,,M,,*70
$GPGLL,3454.882,N,08102.374,W,034224.435,V*3F
$GPGSA,A,2,17,16,12,08,06,06,,,,,,,1.0,0.1,0.6*3F
$GPGSV,2,1,06,17,79,086,70,16,19,173,80,12,35,225,75,08,19,275,15*79
$GPGSV,2,2,06,06,82,219,66,06,76,166,75*7D
$GPRMC,034228.435,V,3454.880,N,08102.374,W,95.2,2.28,301117,,E*40
$GPGGA,034229.435,3454.880,N,08102.374,W,0,04,0.1,,M,,M,,*7B
$GPGLL,3454.880,N,08102.374,W,034230.435,V*38
$GPGSA,A,2,17,16,12,08,06,06,,,,,,,0.4,0.6,0.0*3B
$GPGSV,2,1,06,17,22,167,52,16,63,312,51,12,52,195,85,08,74,214,18*7A
$GPGSV,2,2,06,06,62,295,41,06,28,324,44*7F
$GPRMC,034234.435,V,3454.879,N,08102.375,W,81.9,2.38,301117,,E*45
$GPGGA,034235.435,3454.879,N,08102.375,W,0,04,0.6,,M,,M,,*76
$GPGLL,3454.879,N,08102.375,W,034236.435,V*39
$GPGSA,A,3,17,16,12,08,06,06,,,,,,,0.4,0.2,0.1*3F
$GPGSV,2,1,06,17,84,235,28,16,84,098,43,12,76,303,39,08,56,255,62*70
$GPGSV,2,2,06,06,05,096,70,06,28,118,45*71
$GPRMC,034240.435,V,3454.878,N,08102.377,W,72.6,2.48,301117,,E*41
$GPGGA,034241.435,3454.878,N,08102.377,W,0,04,0.2,,M,,M,,*72
$GPGLL,3454.878,N,08102.377,W,034242.435,V*39
$GPGSA,A,2,17,16,12,08,06,06,,,,,,,0.6,0.0,0.8*37
$GPGSV,2,1,06,17,77,212,28,16,52,266,86,12,24,221,37,08,39,256,49*73
$GPGSV,2,2,06,06,07,071,67,06,36,014,62*7B
$GPRMC,034246.435,V,3454.876,N,08102.378,W,8.9,2.41,301117,,E*7D
$GPGGA,034247.435,3454.876,N,08102.378,W,0,04,0.0,,M,,M,,*77
$GPGLL,3454.876,N,08102.378,W,034248.435,V*32
$GPGSA,A,2,17,16,12,08,06,06,,,,,,,0.7,0.7,0.2*3B
$GPGSV,2,1,06,17,67,224,54,16,17,233,29,12,43,049,57,08,05,037,84*78
$GPGSV,2,2,06,06,12,001,50,06,75,144,48*77
$GPRMC,034252.435,V,3454.875,N,08102.379,W,69.4,2.40,301117,,E*41
$GPGGA,034253.435,3454.875,N,08102.379,W,0,04,0.7,,M,,M,,*77
$GPGLL,3454.875,N,08102.379,W,034254.435,V*3D
$GPGSA,A,2,17,16,12,08,06,06,,,,,,,0.9,0.3,0.5*36
$GPGSV,2,1,06,17,20,180,61,16,28,072,83,12,78,188,20,08,08,072,23*7E
$GPGSV,2,2,06,06,16,091,66,06,65,048,69*70
$GPRMC,034258.435,V,3454.873,N,08102.380,W,5.3,2.33,301117,,E*72
$GPGGA,034259.435,3454.873,N,08102.380,W,0,04,0.3,,M,,M,,*79
$GPGLL,3454.873,N,08102.380,W,034300.435,V*3D
$GPGSA,A,3,17,16,12,08,06,06,,,,,,,0.4,0.6,0.9*33
$GPGSV,2,1,06,17,18,147,87,16,47,255,31,12,71,331,84,08,65,058,24*72
$GPGSV,2,2,06,06,50,341,34,06,56,325,44*7C

